City_ID,City,Lat,Lng,Max Temp,Humidity,Cloudiness,Wind Speed,Country,Date
0,albany,42.6001,-73.9662,3.63,66,71,1.34,US,1732491558
1,yellowknife,62.456,-114.3525,-9.21,93,100,3.09,CA,1732491781
2,tolanaro,-25.0319,46.9987,25.04,88,40,3.09,MG,1732491781
3,hamilton,39.1834,-84.5333,11.6,69,0,3.6,US,1732490948
4,grytviken,-54.2811,-36.5092,4.57,72,3,5.06,GS,1732491773
5,coquimbo,-29.9533,-71.3436,17.85,69,0,4.63,CL,1732491555
6,edinburgh of the seven seas,-37.0676,-12.3116,11.96,74,94,4.97,SH,1732491782
7,papatowai,-46.5619,169.4708,18.03,51,69,5.76,NZ,1732491782
8,tommot,58.9564,126.2925,-18.31,99,100,0.78,RU,1732491782
9,afaahiti,-17.75,-149.2833,25.33,84,57,6.3,PF,1732491782
10,saint-mandrier-sur-mer,43.078,5.929,13.94,79,100,3.58,FR,1732491690
11,iqaluit,63.7506,-68.5145,-2.15,86,100,4.63,CA,1732491782
12,puerto natales,-51.7236,-72.4875,8.16,73,95,0.85,CL,1732491783
13,flying fish cove,-10.4217,105.6791,27.65,81,100,3.4,CX,1732491783
14,jamestown,42.097,-79.2353,4.45,92,100,4.63,US,1732491521
15,timra,62.487,17.3257,2.82,93,100,7.2,SE,1732491783
16,waitangi,-43.9535,-176.5597,13.32,94,74,10.56,NZ,1732491783
17,horta,38.5333,-28.6333,14.45,79,98,1.79,PT,1732491783
18,stanley,54.868,-1.6985,9.01,80,75,6.69,GB,1732491784
19,acarau,-2.8856,-40.12,26.3,76,40,7.09,BR,1732491784
20,brookings,44.3114,-96.7984,1.77,91,100,6.17,US,1732491565
21,tabalosos,-6.35,-76.6833,17.91,98,98,0.88,PE,1732491784
22,mahina,-17.5065,-149.489,29.87,70,75,2.06,PF,1732491784
23,praia da vitoria,38.7333,-27.0667,15.14,77,20,2.12,PT,1732491784
24,barreirinhas,-2.7469,-42.8264,26.14,80,66,4.4,BR,1732491785
25,west island,-12.1568,96.8225,25.99,94,100,9.77,CC,1732491785
26,rio grande,-32.035,-52.0986,20.68,82,0,9.84,BR,1732491782
27,siauliai,55.9333,23.3167,1.01,100,100,7.72,LT,1732491785
28,holualoa,19.6228,-155.9522,24.35,74,100,3.6,US,1732491783
29,puerto lempira,15.2667,-83.7667,25.16,83,60,5.95,HN,1732491785
30,adamstown,-25.066,-130.1015,22.31,66,44,7.07,PN,1732491786
31,polyarnyy,69.1989,33.4478,-3.14,83,50,6.28,RU,1732491786
32,masterton,-40.9597,175.6575,23.11,44,50,2.07,NZ,1732491786
33,nadym,65.5333,72.5167,1.58,92,100,10.59,RU,1732491786
34,strelka,58.0728,93.0344,-16.45,99,97,0.72,RU,1732491786
35,margaret river,-33.95,115.0667,15.14,72,79,8.87,AU,1732491786
36,ribeira grande,38.5167,-28.7,14.87,79,98,1.79,PT,1732491779
37,selfoss,63.9331,-20.9971,-7.15,81,3,4.26,IS,1732491787
38,cody,44.5263,-109.0565,-2.45,91,75,3.09,US,1732491787
39,trairi,-3.2778,-39.2689,25.79,76,32,4.4,BR,1732491625
40,port-aux-francais,-49.35,70.2167,4.05,79,90,12.44,TF,1732491787
41,ushuaia,-54.8,-68.3,8.81,49,40,5.14,AR,1732491787
42,chul'man,56.8479,124.9104,-16.82,98,100,1.24,RU,1732491787
43,invercargill,-46.4,168.35,14.45,73,49,7.6,NZ,1732491788
44,howard springs,-12.497,131.047,30.49,75,85,1.64,AU,1732491788
45,yemva,62.59,50.8594,-3.75,88,100,3.92,RU,1732491788
46,uliastay,47.7417,96.8444,-18.08,84,73,1.26,MN,1732491788
47,olonkinbyen,70.9221,-8.7187,-4.38,58,5,5.61,SJ,1732491788
48,klyuchi,52.2667,79.1667,-11.6,96,24,0.63,RU,1732491788
49,yelizovo,53.1873,158.3805,0.08,59,75,3.0,RU,1732491789
50,phu kradueng,16.8843,101.8847,22.03,85,100,0.96,TH,1732491789
51,aasiaat,68.7098,-52.8699,-4.91,88,100,5.91,GL,1732491789
52,lucapa,-8.4192,20.7447,18.08,96,92,0.94,AO,1732491789
53,al jawf,29.5,38.75,12.98,68,0,5.18,SA,1732491789
54,suva,-18.1416,178.4415,27.71,89,100,3.09,FJ,1732491789
55,ilulissat,69.2167,-51.1,-0.99,93,100,6.69,GL,1732491774
56,puerto ayora,-0.7393,-90.3518,23.08,80,19,2.68,EC,1732491790
57,yulinshi,38.2906,109.7494,-2.34,33,69,9.61,CN,1732491790
58,uyuni,-20.4597,-66.825,11.86,66,88,8.56,BO,1732491790
59,bilibino,68.0546,166.4372,-26.89,96,100,0.9,RU,1732491790
60,katsuura,35.1333,140.3,12.82,64,11,8.09,JP,1732491784
61,banda aceh,5.5577,95.3222,26.05,80,100,1.94,ID,1732491790
62,ust-nera,64.5667,143.2,-30.81,96,95,0.88,RU,1732491791
63,la'ie,21.6477,-157.9253,28.98,65,0,2.24,US,1732491791
64,el abiodh sidi cheikh,32.893,0.5484,10.45,61,0,1.57,DZ,1732491791
65,kirakira,-10.4544,161.9205,29.63,73,35,3.46,SB,1732491791
66,machico,32.7,-16.7667,19.84,85,20,2.06,PT,1732491791
67,howrah,22.5892,88.3103,18.0,88,20,1.54,IN,1732491791
68,bridlington,54.0831,-0.1919,10.11,65,100,4.47,GB,1732491792
69,cam ranh,11.9214,109.1591,25.98,83,40,2.06,VN,1732491792
70,kourou,5.1552,-52.6478,25.24,88,91,2.42,GF,1732491792
71,gilford,43.5476,-71.4067,2.98,59,20,8.05,US,1732491734
72,tralee,52.2704,-9.7026,7.93,75,61,7.68,IE,1732491792
73,woolgoolga,-30.1106,153.2007,25.52,65,10,5.6,AU,1732491792
74,wailua homesteads,22.0669,-159.378,25.63,79,16,0.45,US,1732491792
75,tobelo,1.7284,128.0095,28.27,78,59,1.54,ID,1732491793
76,blackmans bay,-43.0167,147.3167,14.07,94,94,2.69,AU,1732491771
77,sadjoavato,-12.6334,49.349,22.84,92,17,1.77,MG,1732491793
78,kavaratti,10.5669,72.642,27.68,65,100,4.51,IN,1732491793
79,susuman,62.7833,148.1667,-35.56,96,77,0.4,RU,1732491793
80,udachny,66.4167,112.4,-30.37,94,28,3.86,RU,1732491793
81,bethel,41.3712,-73.414,7.23,58,39,2.68,US,1732491793
82,queanbeyan,-35.35,149.2333,27.46,47,100,2.06,AU,1732491794
83,kedougou,12.5579,-12.1743,26.32,47,0,0.0,SN,1732491794
84,mogocha,53.7333,119.7667,-12.06,96,100,1.11,RU,1732491794
85,dudinka,69.4058,86.1778,-2.71,97,100,8.59,RU,1732491794
86,stavrovo,56.1331,40.013,-3.4,88,6,1.48,RU,1732491794
87,inongo,-1.95,18.2667,22.17,89,42,1.24,CD,1732491795
88,laguna,38.421,-121.4238,16.79,50,0,3.09,US,1732491795
89,olyokminsk,60.3736,120.4264,-17.97,97,100,1.52,RU,1732491776
90,petropavlovsk-kamchatsky,53.0452,158.6483,-0.67,59,75,3.0,RU,1732491787
91,muli,2.9167,73.5667,27.72,75,97,2.96,MV,1732491795
92,qina,26.1642,32.7267,15.24,42,0,5.73,EG,1732491795
93,fale old settlement,-9.3852,-171.2468,28.69,71,14,6.49,TK,1732491788
94,bodhan,18.6667,77.9,15.54,72,94,1.32,IN,1732491796
95,port saint john's,-31.6229,29.5448,23.88,91,40,4.95,ZA,1732491796
96,talnakh,69.4865,88.3972,-7.59,95,100,6.97,RU,1732491796
97,dwarka,22.2394,68.9678,24.25,51,67,3.94,IN,1732491796
98,thompson,55.7435,-97.8558,-14.91,92,100,5.66,CA,1732491796
99,saint-philippe,-21.3585,55.7679,23.91,84,44,4.41,RE,1732491796
100,iquitos,-3.7481,-73.2472,25.02,94,75,1.03,PE,1732491797
101,alofi,-19.0595,-169.9187,27.94,74,75,6.17,NU,1732491797
102,chu,43.5983,73.7614,-0.18,59,0,0.74,KZ,1732491797
103,hawaiian paradise park,19.5933,-154.9731,24.37,86,100,2.57,US,1732491797
104,okhotsk,59.3833,143.3,-13.9,65,0,7.17,RU,1732491797
105,kenai,60.5544,-151.2583,-0.48,90,100,0.0,US,1732491797
106,puerto aysen,-45.4,-72.7,8.68,99,100,1.03,CL,1732491798
107,nova sintra,14.8667,-24.7167,25.69,78,0,5.04,CV,1732491798
108,east london,-33.0153,27.9116,23.55,88,51,5.83,ZA,1732491790
109,quellon,-43.1167,-73.6167,11.96,76,77,3.58,CL,1732491798
110,barra de santo antonio,-9.4047,-35.5072,25.87,81,28,5.31,BR,1732491798
111,qaqortoq,60.7167,-46.0333,-11.62,69,2,1.64,GL,1732491798
112,mount gambier,-37.8333,140.7667,21.07,65,100,2.66,AU,1732491799
113,kapa'a,22.0752,-159.319,26.38,79,9,0.45,US,1732491799
114,verkhnevilyuysk,63.4453,120.3167,-24.35,91,100,1.99,RU,1732491799
115,la passe,45.5549,-0.8967,16.1,64,93,13.38,FR,1732491799
116,sena madureira,-9.0656,-68.6569,23.24,95,95,0.25,BR,1732491790
117,keflavik,64.0049,-22.5624,-1.76,64,75,9.77,IS,1732491799
118,longyearbyen,78.2186,15.6401,-7.09,68,40,4.63,SJ,1732491781
119,ocean shores,46.9737,-124.1563,8.34,95,100,3.6,US,1732491593
120,wanning,18.8003,110.3967,23.84,91,50,4.85,CN,1732491689
121,kulhudhuffushi,6.6221,73.07,27.8,76,95,3.15,MV,1732491800
122,sulak,43.2734,47.5146,7.79,71,100,6.64,RU,1732491800
123,port lincoln,-34.7333,135.8667,17.99,79,100,1.79,AU,1732491800
124,neiafu,-18.65,-173.9833,28.38,74,75,4.12,TO,1732491800
125,lihue,21.9789,-159.3672,25.97,79,17,0.96,US,1732491801
126,sahab,31.8721,36.005,8.35,66,40,5.14,JO,1732491801
127,nuuk,64.1835,-51.7216,-2.66,68,100,0.51,GL,1732491693
128,egilsstadir,65.2653,-14.3948,-2.05,93,100,10.29,IS,1732491801
129,st. john's,47.5649,-52.7093,6.82,97,75,9.77,CA,1732491665
130,dunhua,43.3725,128.2425,0.08,83,100,1.9,CN,1732491802
131,kandira,41.0736,30.1746,5.29,64,100,2.88,TR,1732491802
132,berdigestyakh,62.0989,126.6992,-24.73,99,98,2.02,RU,1732491802
133,siracusa,37.0881,15.2792,13.19,63,0,2.26,IT,1732491802
134,cabedelo,-6.9811,-34.8339,27.37,75,23,6.56,BR,1732491802
135,jeddah,21.5169,39.2192,26.92,54,40,1.03,SA,1732491774
136,solleftea,63.1667,17.2667,2.92,97,100,3.73,SE,1732491803
137,karditsa,39.3656,21.9217,5.05,39,3,0.77,GR,1732491763
138,tazovsky,67.4667,78.7,0.77,98,100,7.62,RU,1732491803
139,santa marta,11.2408,-74.199,31.03,77,20,3.6,CO,1732491638
140,fisterra,42.9049,-9.2629,13.75,71,100,4.22,ES,1732491803
141,kerikeri,-35.2268,173.9474,20.97,43,38,3.15,NZ,1732491803
142,rongelap,11.1635,166.8941,28.36,79,21,8.74,MH,1732491800
143,san patricio,28.017,-97.5169,26.97,63,5,6.99,US,1732491804
144,jayapura,-2.5333,140.7,28.66,69,86,1.41,ID,1732491804
145,marolambo,-20.05,48.1167,20.89,97,100,0.49,MG,1732491804
146,margate,51.3813,1.3862,16.6,70,98,1.34,GB,1732491804
147,castillos,-34.1667,-53.8333,19.26,85,0,5.03,UY,1732491804
148,la ronge,55.1001,-105.2842,-13.86,78,100,5.66,CA,1732491797
149,lompoc,34.6391,-120.4579,18.23,57,0,4.12,US,1732491805
150,waddan,29.1614,16.139,12.78,68,33,4.07,LY,1732491805
151,lebu,-37.6167,-73.65,12.75,88,0,0.98,CL,1732491684
152,malango,-2.9627,119.9001,23.62,83,94,0.49,ID,1732491805
153,port elizabeth,-33.918,25.5701,21.16,99,75,4.63,ZA,1732491806
154,chegdomyn,51.1167,133.0167,-16.31,94,59,0.51,RU,1732491806
155,grand falls-windsor,48.9332,-55.6649,6.39,95,100,2.38,CA,1732491806
156,enewetak,11.3474,162.3373,28.3,80,40,9.65,MH,1732491801
157,bitam,2.076,11.5007,20.45,97,35,1.18,GA,1732491806
158,sampit,-2.5333,112.95,23.93,99,100,0.72,ID,1732491807
159,kodiak,57.79,-152.4072,1.73,80,40,0.0,US,1732491807
160,avarua,-21.2078,-159.775,27.03,74,75,4.63,CK,1732491781
161,constantia,44.1833,28.65,-1.62,56,30,2.36,RO,1732491807
162,puerto cabezas,14.0351,-83.3888,28.98,79,40,6.17,NI,1732491807
163,ust'-uda,54.1742,103.0304,-11.36,96,100,1.06,RU,1732491807
164,ikovka,55.6089,64.9375,-7.3,81,3,2.82,RU,1732491807
165,isafjordur,66.0755,-23.124,-8.25,72,7,1.55,IS,1732491808
166,arraial do cabo,-22.9661,-42.0278,21.68,77,3,6.37,BR,1732491576
167,hagenow,53.4333,11.1833,10.77,74,100,7.56,DE,1732491808
168,reggane,26.7158,0.1714,19.34,32,0,5.7,DZ,1732491808
169,aykhal,66.0,111.5,-30.13,91,11,4.51,RU,1732491808
170,sao vicente,-23.9631,-46.3919,22.19,26,29,3.58,BR,1732491737
171,kingston,17.997,-76.7936,25.53,89,100,4.63,JM,1732491702
172,queenstown,-31.8976,26.8753,17.73,91,0,1.22,ZA,1732491809
173,bikenibeu village,1.3673,173.1241,29.98,74,20,5.66,KI,1732491809
174,cedeira,43.6797,-8.0209,11.1,100,100,3.16,ES,1732491809
175,tura,25.5198,90.2201,15.07,90,17,1.83,IN,1732491809
176,nishinoomote,30.7333,131.0,17.04,63,54,8.63,JP,1732491809
177,ghanzi,-21.5667,21.7833,21.53,57,47,3.15,BW,1732491809
178,yeed,4.55,43.0333,29.78,39,89,2.33,SO,1732491810
179,mount pearl,47.5166,-52.7813,6.36,98,75,9.77,CA,1732491776
180,hadibu,12.65,54.0333,25.01,78,19,3.11,YE,1732491810
181,tiksi,71.6872,128.8694,-22.43,91,81,6.22,RU,1732491810
182,darab,28.7519,54.5444,14.73,32,66,0.99,IR,1732491810
183,bardai,11.65,7.2333,18.03,24,8,4.06,NG,1732491810
184,codrington,-38.2667,141.9667,19.17,72,100,3.84,AU,1732491810
185,coahuayana de hidalgo,18.7,-103.6583,25.91,78,27,1.44,MX,1732491811
186,mejit,10.2753,170.8646,27.88,81,67,7.93,MH,1732491811
187,magnolia,33.2671,-93.2393,20.49,68,35,1.79,US,1732491811
188,kavieng,-2.5744,150.7967,28.8,76,94,4.26,PG,1732491811
189,utrik,11.2278,169.8474,27.9,81,30,8.05,MH,1732491811
190,jinjing,24.575,118.5972,18.41,79,78,4.81,CN,1732491811
191,ulsteinvik,62.3432,5.8487,8.5,77,45,6.56,NO,1732491796
192,kailua-kona,19.6406,-155.9956,26.42,74,100,3.6,US,1732491812
193,mao,39.8885,4.2658,17.31,82,0,4.63,ES,1732491812
194,puerto baquerizo moreno,-0.9,-89.6,22.04,73,47,5.01,EC,1732491812
195,tonk,26.1667,75.7833,17.17,41,24,2.02,IN,1732491812
196,ambon,-3.6954,128.1814,30.69,100,20,1.03,ID,1732491812
197,bredasdorp,-34.5322,20.0403,18.18,84,100,0.95,ZA,1732491812
198,debre werk',10.6667,38.1667,13.81,68,61,0.67,ET,1732491813
199,tsimasham,27.0989,89.536,1.36,90,69,2.38,BT,1732491813
200,wilmington island,32.0036,-80.9737,16.09,76,0,0.0,US,1732491813
201,buzuluk,52.7807,52.2635,-0.57,70,4,3.37,RU,1732491813
202,minas de marcona,-15.2119,-75.1103,14.92,80,58,5.58,PE,1732491813
203,kristiansund,63.1115,7.732,5.36,65,74,1.54,NO,1732491781
204,happy valley-goose bay,53.3168,-60.3315,3.17,93,100,9.26,CA,1732491813
205,newman,37.3138,-121.0208,17.25,55,50,1.34,US,1732491814
206,astrakhan,46.3497,48.0408,0.93,100,84,5.0,RU,1732491814
207,nelson bay,-32.7167,152.15,28.94,67,98,8.49,AU,1732491814
208,impfondo,1.6381,18.0667,23.77,79,71,0.86,CG,1732491814
209,port moresby,-9.4431,147.1797,30.68,70,40,1.54,PG,1732491815
210,hithadhoo,-0.6,73.0833,28.09,75,92,6.83,MV,1732491815
211,zaysan,47.4667,84.8667,-10.82,80,28,1.97,KZ,1732491637
212,nueva gerona,21.8833,-82.8,23.09,66,1,3.85,CU,1732491815
213,ad-damazin,11.7891,34.3592,26.54,28,29,3.87,SD,1732491815
214,tsagan aman,47.5639,46.7218,2.82,86,100,4.13,RU,1732491815
215,praya,14.9215,-23.5087,25.3,78,20,6.69,CV,1732491815
216,mariental,-24.6333,17.9667,26.65,25,54,2.65,NA,1732491816
217,inari,68.906,27.0288,-3.45,77,99,4.86,FI,1732491816
218,cidreira,-30.1811,-50.2056,20.99,77,0,12.11,BR,1732491816
219,pala,9.3642,14.9046,20.86,26,35,2.37,TD,1732491816
220,sitka,57.0531,-135.33,3.94,35,0,0.0,US,1732491776
221,roschinskiy,53.2669,40.0039,-1.71,79,35,5.19,RU,1732491816
222,punta arenas,-53.15,-70.9167,9.06,53,75,4.12,CL,1732491741
223,anadyr,64.75,177.4833,-8.72,85,20,5.0,RU,1732491817
224,badger,64.8,-147.5333,-6.68,86,0,2.57,US,1732491817
225,sao jose da coroa grande,-8.8978,-35.1478,25.65,80,4,5.85,BR,1732491817
226,narara,-33.4,151.35,27.09,80,97,0.89,AU,1732491817
227,port mathurin,-19.6833,63.4167,24.57,73,20,7.49,MU,1732491817
228,hilo,19.7297,-155.09,24.49,90,100,2.57,US,1732491817
229,sur,22.5667,59.5289,24.57,61,0,4.03,OM,1732491817
230,progreso,21.2833,-89.6667,24.51,63,52,4.46,MX,1732491818
231,greenland,43.0362,-70.8328,6.06,54,75,9.26,US,1732491818
232,newcastle,-32.9272,151.7765,27.03,64,0,3.09,AU,1732491818
233,penzance,50.1186,-5.5371,12.38,80,100,12.79,GB,1732491818
234,osakarovka,50.565,72.5692,-4.94,81,59,5.25,KZ,1732491818
235,sebastian,35.1668,-94.2669,21.31,71,79,5.12,US,1732491765
236,vadso,70.0744,29.7487,-1.91,80,20,7.72,NO,1732491818
237,acapulco de juarez,16.8634,-99.8901,28.9,74,75,3.6,MX,1732491781
238,hasaki,35.7333,140.8333,12.8,51,37,8.4,JP,1732491819
239,cold lake,54.4502,-110.2017,-12.03,85,75,3.6,CA,1732491819
240,fort bragg,35.139,-79.006,13.75,73,0,0.0,US,1732491550
241,vorgashor,67.5833,63.95,-4.35,93,100,8.1,RU,1732491819
242,lahad datu,5.0268,118.327,25.49,92,99,2.69,MY,1732491820
243,ilha de mocambique,-15.0342,40.7358,26.56,82,82,1.4,MZ,1732491820
244,sorong,-0.8833,131.25,26.53,87,98,2.79,ID,1732491820
245,sars,56.5502,57.1366,-1.74,67,0,3.78,RU,1732491820
246,sosnovo-ozerskoye,52.5249,111.5418,-23.88,99,62,3.08,RU,1732491820
247,kone,-21.0595,164.8658,27.77,68,98,2.55,NC,1732491820
248,sandnessjoen,66.0217,12.6316,1.97,84,100,8.59,NO,1732491821
249,lata,40.1629,-8.3327,16.5,92,100,6.94,PT,1732491821
250,cururupu,-1.8283,-44.8683,24.5,87,86,1.0,BR,1732491821
251,gaspe,48.8334,-64.4819,3.12,87,100,5.66,CA,1732491668
252,buala,-8.145,159.5921,29.95,69,36,1.76,SB,1732491821
253,ciudad del carmen,18.6333,-91.8333,26.02,50,0,2.06,MX,1732491821
254,hermanus,-34.4187,19.2345,18.78,89,100,1.45,ZA,1732491821
255,callao,-12.0667,-77.15,20.16,77,100,4.12,PE,1732491671
256,vilyuysk,63.7553,121.6247,-22.76,89,100,2.43,RU,1732491822
257,nago,26.5881,127.9761,22.58,63,4,3.64,JP,1732491822
258,victorica,-36.2151,-65.4359,23.34,32,0,3.95,AR,1732491822
259,beaufort west,-32.3567,22.583,23.72,43,35,2.18,ZA,1732491822
260,brady,31.1352,-99.3351,25.25,38,0,2.57,US,1732491823
261,igarka,67.4667,86.5833,-1.8,96,100,7.79,RU,1732491788
262,ust'-kulom,61.6864,53.6902,-1.45,88,100,2.7,RU,1732491823
263,maues,-3.3836,-57.7186,28.36,60,60,1.1,BR,1732491823
264,justo daract,-33.8594,-65.1828,20.83,87,47,5.02,AR,1732491823
265,sesto calende,45.7261,8.634,7.47,77,40,3.09,IT,1732491823
266,aswan,24.0934,32.907,18.61,52,0,2.57,EG,1732491823
267,carnarvon,-24.8667,113.6333,22.11,78,83,9.19,AU,1732491824
268,arendal,58.4615,8.7725,10.29,94,100,9.83,NO,1732491824
269,linxia chengguanzhen,35.6003,103.2064,-10.41,91,90,2.19,CN,1732491824
270,mahdia,35.5047,11.0622,18.81,67,100,6.84,TN,1732491824
271,mabaruma,8.2,-59.7833,24.62,90,100,0.99,GY,1732491824
272,sechenovo,55.2244,45.8906,-0.49,98,100,5.66,RU,1732491824
273,limon,10.0,-83.0333,25.21,84,89,4.83,CR,1732491722
274,voitsberg,47.0333,15.15,-1.32,94,95,3.09,AT,1732491825
275,karpinsk,59.7654,60.0085,-4.14,90,3,1.54,RU,1732491825
276,ola,59.5833,151.2833,-13.17,66,66,5.5,RU,1732491825
277,malvan,16.0667,73.4667,22.77,52,96,2.66,IN,1732491825
278,porbandar,21.6422,69.6093,22.76,41,30,3.84,IN,1732491784
279,swanage,50.6092,-1.9626,11.02,89,100,4.92,GB,1732491826
280,auki,-8.7676,160.7034,30.2,69,33,2.12,SB,1732491826
281,atafu village,-8.5421,-172.5159,28.55,73,21,5.78,TK,1732491773
282,mahibadhoo,3.7833,72.9667,27.61,75,93,2.32,MV,1732491826
283,manoc-manoc,11.9416,121.9428,27.84,78,36,7.24,PH,1732491826
284,terbanggi besar,-4.8667,105.2333,26.22,84,89,1.2,ID,1732491826
285,emerald,-23.5333,148.1667,28.32,42,0,5.85,AU,1732491826
286,saldanha,-33.0117,17.9442,15.03,91,94,4.23,ZA,1732491805
287,nemuro,43.3236,145.575,3.99,70,60,9.53,JP,1732491774
288,ceerigaabo,10.6162,47.368,16.05,71,0,0.42,SO,1732491827
289,villa gesell,-37.2639,-56.973,18.88,93,77,1.88,AR,1732491827
290,jiuquan,39.7432,98.5174,-10.56,55,26,2.24,CN,1732491827
291,sao gabriel da cachoeira,-0.1303,-67.0892,27.13,73,99,0.74,BR,1732491827
292,fengcheng,40.4536,124.0717,2.53,74,91,0.22,CN,1732491827
293,crane,31.3974,-102.3501,22.58,14,8,5.05,US,1732491805
294,touros,-5.1989,-35.4608,25.83,77,56,5.91,BR,1732491790
295,mata-utu,-13.2816,-176.1745,28.02,76,66,4.92,WF,1732491828
296,esens,53.6487,7.6127,16.2,64,100,7.72,DE,1732491828
297,buka,40.8108,69.1986,6.45,35,35,1.48,UZ,1732491779
298,college,64.8569,-147.8028,-6.63,83,100,2.57,US,1732491829
299,roma,43.2128,-75.4557,4.08,88,100,4.63,US,1732491829
300,necochea,-38.5473,-58.7368,17.47,99,100,2.6,AR,1732491718
301,gadzhiyevo,69.2551,33.3362,-3.98,87,51,6.08,RU,1732491778
302,ciudad lazaro cardenas,17.9583,-102.2,27.05,78,4,2.96,MX,1732491829
303,presidente medici,-11.1753,-61.9014,23.69,85,71,1.51,BR,1732491830
304,taroa,8.7058,171.2275,28.08,80,44,5.81,MH,1732491830
305,labrador city,52.9463,-66.9114,-0.46,95,100,5.36,CA,1732491616
306,kayangel,8.0823,134.7173,28.88,79,66,9.47,PW,1732491830
307,cobram,-35.9167,145.65,22.85,69,100,3.96,AU,1732491830
308,morehead city,34.7229,-76.726,15.0,77,0,3.09,US,1732491830
309,ponta delgada,37.7333,-25.6667,18.44,63,40,1.54,PT,1732491831
310,repalle,16.0167,80.85,21.12,88,100,2.49,IN,1732491831
311,ancud,-41.8697,-73.8203,11.89,87,32,6.36,CL,1732491831
312,barra do garcas,-15.89,-52.2567,22.45,92,24,1.43,BR,1732491831
313,chaibasa,22.5667,85.8167,14.47,63,96,0.88,IN,1732491831
314,isangel,-19.55,169.2667,27.06,78,75,10.29,VU,1732491831
315,sarnia,42.9787,-82.4041,6.05,85,100,2.06,CA,1732491724
316,maple ridge,49.2194,-122.6019,7.86,91,100,1.54,CA,1732491832
317,north bay,46.3168,-79.4663,-0.59,80,75,2.57,CA,1732491563
318,owen sound,44.5672,-80.9435,3.27,86,57,0.89,CA,1732491832
319,sarmiento,-45.5882,-69.07,16.46,32,48,7.51,AR,1732491832
320,lubang,13.8584,120.124,27.34,80,21,12.11,PH,1732491777
321,nuku'alofa,-21.1333,-175.2,29.19,74,20,5.14,TO,1732491832
322,bouca,6.5105,18.2733,21.42,43,77,0.86,CF,1732491833
323,al khawr,25.7667,51.3167,20.74,64,29,1.81,QA,1732491833
324,ivolginsk,51.7492,107.2837,-23.19,84,49,1.0,RU,1732491833
325,tofol,5.3248,163.0078,28.88,84,75,1.54,FM,1732491833
326,duyun,26.2667,107.5167,10.76,95,100,1.78,CN,1732491833
327,barcelos,41.5388,-8.6151,13.33,96,100,4.6,PT,1732491834
328,liwale,-9.7667,37.9333,20.42,94,27,1.18,TZ,1732491834
329,chabahar,25.2919,60.643,25.42,59,0,0.33,IR,1732491834
330,el amria,35.5244,-1.0158,18.78,38,7,2.61,DZ,1732491834
331,sinabang,2.4803,96.3801,25.16,90,100,2.96,ID,1732491834
332,paphos,34.7667,32.4167,10.88,37,0,3.09,CY,1732491834
333,saipan,15.1355,145.701,29.25,81,40,7.2,MP,1732491834
334,inarajan village,13.2736,144.7484,30.55,87,73,8.6,GU,1732491835
335,maamba,-17.3667,27.15,21.64,74,96,1.71,ZM,1732491835
336,casper,42.8666,-106.3131,-5.71,90,100,5.14,US,1732491835
337,sinop,41.7711,34.8709,-1.46,94,100,3.97,TR,1732491835
338,kapuskasing,49.4169,-82.4331,-4.95,100,100,2.57,CA,1732491835
339,georgetown,5.4112,100.3354,26.96,89,20,1.03,MY,1732491828
340,la libertad,-2.2333,-80.9,22.81,83,75,4.7,EC,1732491813
341,komatipoort,-25.4332,31.9548,21.21,86,14,0.92,ZA,1732491836
342,bastia,42.6667,9.3333,11.28,80,0,3.09,FR,1732491837
343,el fasher,13.6279,25.3494,18.96,27,1,2.81,SD,1732491837
344,belozersk,60.0326,37.7957,-4.08,94,25,3.67,RU,1732491837
345,vorkuta,67.5,64.0,-4.05,92,100,8.01,RU,1732491837
346,isla mujeres,21.2311,-86.731,24.03,68,17,5.06,MX,1732491837
347,vilyuchinsk,52.9306,158.4028,0.15,86,99,3.75,RU,1732491782
348,kitimat,54.0524,-128.6534,-0.61,52,15,2.68,CA,1732491837
349,quirihue,-36.2833,-72.5333,11.73,65,0,2.37,CL,1732491838
350,hashtpar,37.8008,48.9037,12.85,78,1,1.81,IR,1732491838
351,carbonear,47.7332,-53.2148,7.3,98,100,5.74,CA,1732491838
352,cabo san lucas,22.8909,-109.9124,30.17,30,0,6.69,MX,1732491838
353,fukuecho,32.6881,128.8419,13.2,62,40,7.2,JP,1732491838
354,pandan,14.0453,124.1694,27.46,84,45,5.91,PH,1732491838
355,aureilhan,43.2434,0.0958,19.39,45,0,6.17,FR,1732491838
356,villa ojo de agua,-29.5,-63.6938,27.29,59,87,4.57,AR,1732491839
357,lorengau,-2.0226,147.2712,28.82,77,95,1.48,PG,1732491839
358,pangkalpinang,-2.1333,106.1333,25.67,82,100,0.57,ID,1732491839
359,karratha,-20.7377,116.8463,29.52,44,73,4.46,AU,1732491823
360,murzuq,25.9155,13.9184,15.22,56,0,6.63,LY,1732491839
361,keene,42.9337,-72.2781,5.1,60,100,2.68,US,1732491839
362,yelovo,57.0538,54.9207,-2.17,85,53,3.11,RU,1732491840
363,manta,-0.95,-80.7333,25.88,73,20,4.39,EC,1732491840
364,moab,38.5733,-109.5498,12.03,28,100,1.37,US,1732491840
365,naze,28.3667,129.4833,19.51,65,87,7.44,JP,1732491840
366,gorontalo,0.5412,123.0595,27.46,86,99,0.43,ID,1732491840
367,buulobarde,3.8538,45.5674,24.86,86,46,3.47,SO,1732491841
368,vanimo,-2.6741,141.3028,30.39,65,72,1.42,PG,1732491841
369,shakawe,-18.3667,21.85,19.48,85,9,1.94,BW,1732491841
370,pisco,-13.7,-76.2167,21.03,78,0,6.69,PE,1732491841
371,camocim,-2.9022,-40.8411,26.19,77,22,5.64,BR,1732491841
372,birao,10.2849,22.7882,19.07,21,43,2.54,CF,1732491842
373,kemijarvi,66.7131,27.4306,-2.22,81,100,5.3,FI,1732491842
374,itoman,26.1247,127.6694,22.01,71,20,2.57,JP,1732491819
375,khorol,49.7837,33.2783,-2.18,82,17,2.51,UA,1732491842
376,nar'yan-mar,67.6713,53.087,-2.75,90,94,11.49,RU,1732491842
377,zaozersk,69.4005,32.4476,-4.8,88,58,5.78,RU,1732491842
378,morteros,-30.7116,-61.9986,30.37,51,51,1.08,AR,1732491742
379,kidal,18.4411,1.4078,23.07,15,0,3.94,ML,1732491843
380,puerto quijarro,-17.7833,-57.7667,29.43,56,82,1.41,BO,1732491843
381,kiunga,-6.1219,141.2906,27.68,82,100,0.47,PG,1732491843
382,ust'-ilimsk,58.0006,102.6619,-15.39,98,99,0.66,RU,1732491843
383,nova vicosa,-17.8919,-39.3719,23.72,71,94,5.73,BR,1732491843
384,haiku-pauwela,20.9219,-156.3051,25.68,73,20,4.12,US,1732491844
385,urangan,-25.3,152.9,24.35,58,41,5.78,AU,1732491844
386,namdrik,5.5994,168.1028,29.04,73,96,9.46,MH,1732491844
387,punta cana,18.5818,-68.4043,27.87,78,40,6.69,DO,1732491844
388,guiratinga,-16.3494,-53.7583,23.83,80,58,1.55,BR,1732491844
389,pacific grove,36.6177,-121.9166,16.34,84,20,6.71,US,1732491793
390,portland,45.5234,-122.6762,8.12,94,100,3.09,US,1732491661
391,greymouth,-42.4667,171.2,14.52,80,100,1.97,NZ,1732491845
392,shchastya,48.7396,39.2323,-0.05,76,97,6.35,UA,1732491845
393,yakeshi,49.2833,120.7333,-8.0,96,100,0.52,CN,1732491845
394,puerto el triunfo,13.2833,-88.55,25.15,72,1,0.82,SV,1732491845
395,leh,34.1667,77.5833,-8.12,66,1,0.88,IN,1732491845
396,khandyga,62.6667,135.6,-29.6,98,42,0.74,RU,1732491845
397,nathdwara,24.9333,73.8167,16.4,35,12,1.43,IN,1732491846
398,saint john,45.2727,-66.0677,4.57,75,100,7.2,CA,1732491843
399,akureyri,65.6835,-18.0878,-2.04,80,100,5.66,IS,1732491846
400,rustaq,23.3908,57.4244,23.44,44,0,0.71,OM,1732491846
401,chonchi,-42.6128,-73.8092,13.4,81,60,2.41,CL,1732491846
402,ketchikan,55.3422,-131.6461,2.99,41,0,2.57,US,1732491846
403,lib,8.3122,167.3766,28.53,77,51,8.28,MH,1732491847
404,faya-largeau,17.9257,19.1043,21.14,24,0,8.86,TD,1732491847
405,manaure balcon del cesar,10.3928,-73.0325,26.04,96,93,2.39,CO,1732491847
406,grande prairie,55.1667,-118.8027,-17.9,85,75,0.0,CA,1732491587
407,kwale,5.7063,6.4374,22.75,69,33,0.97,NG,1732491847
408,remire-montjoly,4.9167,-52.2667,26.02,94,75,0.0,GF,1732491847
409,santiago de cao,-7.9589,-79.2392,18.07,82,20,5.14,PE,1732491847
410,napili-honokowai,20.9708,-156.6705,25.77,81,45,4.42,US,1732491848
411,luanda,-8.8368,13.2343,26.0,83,0,2.06,AO,1732491712
412,adh dhibiyah,24.5014,45.9686,19.2,40,63,4.33,SA,1732491848
413,mangai,-4.05,19.5333,21.53,91,78,0.31,CD,1732491848
414,cockburn town,21.4612,-71.1419,25.98,83,75,7.72,TC,1732491848
415,arteche,12.2645,125.4048,26.88,86,40,5.22,PH,1732491848
416,boden,65.8252,21.6886,0.9,96,100,7.65,SE,1732491848
417,pemangkat,1.1667,108.9667,26.33,86,100,2.12,ID,1732491821
418,arys,42.4252,68.795,3.25,40,0,2.78,KZ,1732491849
419,kadugli,11.0167,29.7167,23.06,18,2,4.8,SD,1732491849
420,brisas de zicatela,15.8369,-97.0419,28.29,78,0,2.06,MX,1732491849
421,vernon,50.2581,-119.2691,3.85,81,100,0.51,CA,1732491621
422,oskarshamn,57.2645,16.4484,9.43,89,100,6.57,SE,1732491849
423,ebon,4.582,168.6964,29.17,69,82,8.08,MH,1732491850
424,taltal,-25.4,-70.4833,17.64,81,34,1.74,CL,1732491620
425,qamdo,31.1667,97.2333,-8.67,25,99,2.26,CN,1732491850
426,gamboma,-1.8764,15.8644,24.53,70,84,1.23,CG,1732491850
427,gargalianoi,37.0667,21.6333,8.97,45,0,1.23,GR,1732491850
428,lake city,30.1897,-82.6393,12.03,66,0,0.0,US,1732491851
429,murun-kuren,49.6342,100.1625,-12.61,56,92,2.27,MN,1732491851
430,along,28.1667,94.7667,9.26,83,82,0.78,IN,1732491851
431,guadalupe y calvo,26.1,-106.9667,12.1,64,75,1.32,MX,1732491851
432,geraldton,-28.7667,114.6,21.23,73,100,11.28,AU,1732491795
433,arenapolis,-14.4503,-56.8461,23.81,90,93,1.03,BR,1732491851
434,turinsk,58.0458,63.696,-2.46,75,0,3.52,RU,1732491852
435,sagalo,12.2007,-10.6996,21.98,21,4,1.52,ML,1732491852
436,ifanadiana,-21.3,47.6333,21.51,96,87,0.64,MG,1732491852
437,conceicao da barra,-18.5933,-39.7322,21.38,79,30,3.32,BR,1732491637
438,whitehorse,60.7161,-135.0538,-16.1,84,40,8.75,CA,1732491852
439,palmer,42.1584,-72.3287,6.95,57,75,11.83,US,1732491852
440,bataipora,-22.2953,-53.2711,24.89,59,29,2.26,BR,1732491852
441,popondetta,-8.7537,148.2534,31.71,57,81,0.98,PG,1732491853
442,halifax,44.6453,-63.5724,6.0,83,100,8.49,CA,1732491700
443,qandala,11.472,49.8728,24.83,86,44,2.11,SO,1732491853
444,bezenchuk,52.982,49.4333,-0.31,73,75,2.76,RU,1732491853
445,eufaula,31.8913,-85.1455,14.41,69,0,2.04,US,1732491853
446,papao,-17.75,-149.55,29.82,82,41,6.94,PF,1732491853
447,nema,57.5067,50.5011,1.15,99,100,2.54,RU,1732491854
448,ko pha ngan,9.7578,100.0291,24.38,78,97,7.6,TH,1732491854
449,sokur,55.2093,83.319,-10.94,95,90,2.72,RU,1732491854
450,ribeira brava,32.65,-17.0667,19.84,74,11,3.33,PT,1732491854
451,kiruna,67.8557,20.2251,-6.49,93,100,3.09,SE,1732491812
452,port alfred,-33.5906,26.891,21.21,98,15,1.79,ZA,1732491774
453,pullman,46.7313,-117.1796,6.34,77,100,5.14,US,1732491855
454,vrede,-27.4257,29.1659,15.25,69,48,1.52,ZA,1732491855
455,nizhneangarsk,55.7833,109.55,-18.42,74,62,2.09,RU,1732491855
456,kurmuk,10.55,34.2833,26.32,41,82,1.14,SD,1732491855
457,piranshahr,36.701,45.1413,5.03,93,73,4.34,IR,1732491855
458,saint-francois,46.4154,3.9054,15.69,55,0,12.35,FR,1732491856
459,kabinda,-6.1333,24.4833,17.99,97,47,0.56,CD,1732491856
460,viedma,-40.8135,-62.9967,15.35,63,2,4.46,AR,1732491856
461,bedford,52.1346,-0.4663,10.13,49,100,1.79,GB,1732491856
462,alesund,62.4723,6.1549,8.08,71,40,5.14,NO,1732491856
463,marsh harbour,26.5412,-77.0636,22.71,58,13,3.27,BS,1732491856
464,valparaiso,-33.0393,-71.6273,23.8,42,0,7.72,CL,1732491637
465,jitra,6.2681,100.4217,24.95,94,20,0.51,MY,1732491587
466,nouadhibou,20.931,-17.0347,19.99,88,0,5.14,MR,1732491857
467,magadan,59.5667,150.8,-11.32,59,70,5.0,RU,1732491857
468,pocito,-31.6833,-68.5833,27.16,46,17,6.54,AR,1732491857
469,barranca,-10.75,-77.7667,19.82,79,76,3.41,PE,1732491858
470,cuiaba,-15.5961,-56.0967,28.96,79,40,1.54,BR,1732491584
471,rawson,-43.3002,-65.1023,15.16,58,0,3.6,AR,1732491858
472,bathsheba,13.2167,-59.5167,29.34,74,40,9.26,BB,1732491858
473,onega,63.9061,38.1404,-3.09,87,55,3.74,RU,1732491858
474,beloyarskiy,63.7119,66.6722,1.25,87,80,5.7,RU,1732491858
475,zliten,32.4674,14.5687,18.18,55,98,4.53,LY,1732491859
476,hotan,37.0997,79.9269,2.62,39,92,0.79,CN,1732491859
477,bonthe,7.5264,-12.505,26.75,83,2,2.09,SL,1732491859
478,hailey,43.5196,-114.3153,1.92,64,0,3.09,US,1732491859
479,lerwick,60.1545,-1.1494,8.83,84,13,10.46,GB,1732491731
480,port augusta,-32.5,137.7667,23.81,68,54,0.85,AU,1732491859
481,tromso,69.6496,18.957,-0.99,80,0,1.54,NO,1732491860
482,mugia,43.1041,-9.2179,11.06,74,100,3.99,ES,1732491860
483,berrahal,36.8353,7.4533,14.13,55,3,2.17,DZ,1732491860
484,lagunas,-5.2269,-75.6753,26.98,75,100,0.83,PE,1732491860
485,ta`u,-14.2336,-169.5144,27.36,74,57,3.2,AS,1732491860
486,spring creek,40.7266,-115.5859,-0.17,55,0,2.32,US,1732491861
487,sabha,27.0377,14.4283,14.38,53,47,5.48,LY,1732491861
488,dakhla,23.6848,-15.958,20.01,94,75,0.0,EH,1732491861
489,north bend,43.4065,-124.2243,11.95,66,100,3.6,US,1732491861
490,lamarque,-39.423,-65.7021,24.7,17,2,5.73,AR,1732491861
491,monguno,12.6786,13.6079,22.65,47,23,5.74,NG,1732491861
492,jinghong,21.991,100.7341,15.19,93,22,0.69,CN,1732491862
493,tegal,-6.8694,109.1402,27.48,71,98,1.61,ID,1732491862
494,tidjikja,18.5564,-11.4271,24.9,14,11,4.64,MR,1732491862
495,siniscola,40.5719,9.6922,10.04,80,2,2.28,IT,1732491862
496,calvi,42.5,8.8333,6.35,87,75,2.57,FR,1732491741
497,otake,34.2,132.2167,8.69,61,75,3.6,JP,1732491863
498,kotputli,27.7167,76.2,17.89,32,0,1.68,IN,1732491863
499,san blas,21.5167,-105.2667,24.64,73,16,2.09,MX,1732491863
500,lubao,14.9167,120.55,25.84,78,42,4.67,PH,1732491863
501,chinde,26.8212,87.7095,14.64,68,21,2.43,NP,1732491863
502,axim,4.8699,-2.2405,25.98,87,36,2.79,GH,1732491864
503,yuzhno-kurilsk,44.0306,145.8556,2.42,100,100,6.02,RU,1732491864
504,askoy,60.4092,5.226,9.16,91,75,8.75,NO,1732491864
505,colonia,50.9333,6.95,16.18,65,0,6.69,DE,1732491616
506,port-vila,-17.7338,168.3219,27.78,78,75,4.63,VU,1732491864
507,staryye ozinki,51.1786,49.6769,-1.19,73,16,3.42,RU,1732491865
508,luderitz,-26.6481,15.1594,15.08,91,7,5.87,NA,1732491865
509,leme,-22.1856,-47.3903,23.82,74,50,5.09,BR,1732491865
510,meiganga,6.5167,14.3,18.38,38,58,2.04,CM,1732491865
511,severo-yeniseyskiy,60.3725,93.0408,-13.17,93,97,1.99,RU,1732491865
512,midvagur,62.0511,-7.1939,3.46,87,75,13.89,FO,1732491865
513,burley,42.5357,-113.7928,5.98,49,0,2.57,US,1732491866
514,carnot,4.9409,15.8665,21.36,43,27,1.05,CF,1732491866
515,hami,42.8,93.45,-5.38,56,95,2.85,CN,1732491866
516,dunedin,-45.8742,170.5036,15.45,80,18,2.68,NZ,1732491866
517,pariaman,-0.619,100.12,24.03,91,100,1.7,ID,1732491866
518,dunkwa,5.9656,-1.78,23.68,92,27,1.0,GH,1732491866
519,slavutych,51.5196,30.7343,-7.02,98,30,2.48,UA,1732491867
520,jessheim,60.1415,11.1752,5.61,99,100,4.8,NO,1732491867
521,tosontsengel,48.7567,98.2839,-18.89,98,90,0.86,MN,1732491867
522,el granada,37.5027,-122.4694,17.27,67,75,2.57,US,1732491867
523,mazatlan,23.2167,-106.4167,27.98,82,0,3.09,MX,1732491757
524,turpan,42.9333,89.1667,1.27,39,99,0.8,CN,1732491792
525,tavsanli,39.5424,29.4987,-5.92,96,15,0.38,TR,1732491868
526,solnechnyy,50.7214,136.6319,-8.61,66,11,1.73,RU,1732491868
527,san antonio de pale,-1.4014,5.6325,25.96,84,88,4.78,GQ,1732491868
528,murray,40.6669,-111.888,6.46,58,0,2.06,US,1732491869
529,twon-brass,4.3151,6.2418,27.44,79,34,4.89,NG,1732491869
530,fort mcmurray,56.7268,-111.381,-13.23,85,100,2.57,CA,1732491869
531,uva,56.9908,52.1852,-2.45,89,90,1.71,RU,1732491869
532,ilha solteira,-20.4328,-51.3425,26.09,54,25,3.36,BR,1732491584
533,puerto madero,14.7208,-92.4215,28.11,78,40,4.12,MX,1732491870
534,olavarria,-36.8927,-60.3225,18.78,97,99,2.01,AR,1732491646
535,corner brook,48.9667,-57.9484,7.0,97,100,1.52,CA,1732491870
536,taro,-8.3862,115.28,25.56,75,100,0.62,ID,1732491870
537,perelyub,51.8667,50.3667,-0.89,70,33,3.41,RU,1732491870
538,suihua,46.6406,126.9969,-1.35,60,96,4.02,CN,1732491871
539,broome,42.2506,-75.833,5.51,68,100,4.63,US,1732491871
540,santana,-0.0583,-51.1817,30.1,79,0,7.2,BR,1732491871
541,groningen,53.25,6.75,16.68,68,100,9.26,NL,1732491871
542,crowley,30.2141,-92.3746,21.0,82,11,3.59,US,1732491871
543,hengchun,22.0042,120.7439,23.75,77,14,8.89,TW,1732491871
544,tecumseh,42.0039,-83.9449,5.06,84,0,1.54,US,1732491872
545,afif,23.9065,42.9172,19.53,69,71,2.72,SA,1732491872
546,tazacorte,28.629,-17.9293,20.54,88,40,4.02,ES,1732491872
547,lengshuitan,26.4111,111.5956,13.96,77,59,3.5,CN,1732491872
548,port hedland,-20.3167,118.5667,31.03,51,47,3.6,AU,1732491872
549,ulan bator,47.9077,106.8832,-26.93,69,0,2.0,MN,1732491872
550,uturoa,-16.7333,-151.4333,26.83,79,58,5.66,PF,1732491792
551,gandajika,-6.75,23.95,18.0,97,59,0.44,CD,1732491873
552,bengkulu,-3.8004,102.2655,25.26,87,38,3.31,ID,1732491873
553,yemetsk,63.4721,41.7941,-1.18,84,93,4.19,RU,1732491873
554,kaohsiung,22.6163,120.3133,24.46,86,40,1.03,TW,1732491874
